[
  {
    "name": "فندق كورنثيا‎‎‎‎‎‎‏",
    "description": NaN,
    "lat": 32.89692,
    "lon": 13.170402,
    "type": "فندق"
  },
  {
    "name": "فندق بينثابوليس‎‎‎‏",
    "description": NaN,
    "lat": 32.76444,
    "lon": 21.76027,
    "type": "فندق"
  },
  {
    "name": "فندق جوهرة الواحة‎‎‎‏",
    "description": NaN,
    "lat": 30.132383,
    "lon": 9.507026,
    "type": "فندق"
  },
  {
    "name": "فندق تبرس",
    "description": NaN,
    "lat": 31.777558,
    "lon": 11.327179,
    "type": "فندق"
  },
  {
    "name": "منتجع شحات السياحي‎‎‎‎‎‎‎‎‎‏",
    "description": NaN,
    "lat": 32.82451,
    "lon": 21.87935,
    "type": "فندق"
  },
  {
    "name": "فندق المنارة‎",
    "description": NaN,
    "lat": 32.900626,
    "lon": 21.964767,
    "type": "فندق"
  },
  {
    "name": "فندق لؤلؤة الخليج",
    "description": NaN,
    "lat": 32.76469,
    "lon": 21.77744,
    "type": "فندق"
  },
  {
    "name": "فندق مرحبا‎‎‏",
    "description": NaN,
    "lat": 32.767898,
    "lon": 21.788218,
    "type": "فندق"
  },
  {
    "name": "فندق التلال السياحي‎‎‎‎‎‎‎‎‎‎‎‏",
    "description": NaN,
    "lat": 32.793224,
    "lon": 21.733303,
    "type": "فندق"
  },
  {
    "name": "فندق آية الجبل",
    "description": NaN,
    "lat": 32.763852,
    "lon": 21.754994,
    "type": "فندق"
  },
  {
    "name": "العنود للشقق الفندقية‎‎",
    "description": NaN,
    "lat": 32.7664,
    "lon": 21.7417,
    "type": "فندق"
  },
  {
    "name": "فندق الثريا",
    "description": NaN,
    "lat": 32.764375,
    "lon": 21.75694,
    "type": "فندق"
  },
  {
    "name": "منتجع الينابيع السياحي‎‎‎‎‎‏",
    "description": NaN,
    "lat": 32.8815,
    "lon": 22.19025,
    "type": "فندق"
  },
  {
    "name": "فندق برقة",
    "description": NaN,
    "lat": 32.765259,
    "lon": 21.756955,
    "type": "فندق"
  },
  {
    "name": "فندق الهديل",
    "description": NaN,
    "lat": 32.763233,
    "lon": 21.754296,
    "type": "فندق"
  },
  {
    "name": "فندق دار غدامس",
    "description": NaN,
    "lat": 30.11386,
    "lon": 9.4911,
    "type": "فندق"
  },
  {
    "name": "فندق بن يدر‎‎‏",
    "description": NaN,
    "lat": 30.13057,
    "lon": 9.49361,
    "type": "فندق"
  },
  {
    "name": "فندق نجوم غدامس",
    "description": NaN,
    "lat": 30.130444,
    "lon": 9.492807,
    "type": "فندق"
  },
  {
    "name": "Hotel bab al fatah",
    "description": NaN,
    "lat": 30.129669,
    "lon": 9.495953,
    "type": "فندق"
  },
  {
    "name": "فندق عين الفرس",
    "description": NaN,
    "lat": 30.133492,
    "lon": 9.494655,
    "type": "فندق"
  },
  {
    "name": "فندق لبدة",
    "description": NaN,
    "lat": 32.64027,
    "lon": 14.27898,
    "type": "فندق"
  },
  {
    "name": "فندق فكتوريا‎‎‎‎‎‎‎‏",
    "description": NaN,
    "lat": 32.8913655,
    "lon": 13.1943866,
    "type": "فندق"
  },
  {
    "name": "فندق الطاووس‎‏",
    "description": NaN,
    "lat": 32.8737835,
    "lon": 13.3175408,
    "type": "فندق"
  },
  {
    "name": "فندق المهاري‎‎‏",
    "description": NaN,
    "lat": 32.8960393,
    "lon": 13.1997894,
    "type": "فندق"
  },
  {
    "name": "فندق الودان",
    "description": NaN,
    "lat": 32.893187,
    "lon": 13.1909208,
    "type": "فندق"
  },
  {
    "name": "فندق بلازما‎‎‎‏",
    "description": NaN,
    "lat": 32.885667,
    "lon": 13.163972,
    "type": "فندق"
  },
  {
    "name": "فندق دار السلام",
    "description": NaN,
    "lat": 32.073038,
    "lon": 23.968133,
    "type": "فندق"
  },
  {
    "name": "فندق سان جورج‎‏",
    "description": NaN,
    "lat": 32.0798526,
    "lon": 23.9734318,
    "type": "فندق"
  },
  {
    "name": "فندق الحسنين الكبير",
    "description": NaN,
    "lat": 32.643382,
    "lon": 14.251271,
    "type": "فندق"
  },
  {
    "name": "بيوت الشباب",
    "description": NaN,
    "lat": 32.812983,
    "lon": 21.863206,
    "type": "فندق"
  },
  {
    "name": "فندق بلاغراي السياحي",
    "description": NaN,
    "lat": 32.7617367,
    "lon": 21.7177134,
    "type": "فندق"
  },
  {
    "name": "منتجع ايميليا",
    "description": NaN,
    "lat": 32.798444,
    "lon": 22.562225,
    "type": "فندق"
  },
  {
    "name": "منتجع وموتيل الأمان",
    "description": "الطريق العامه الابرق، شحات،، RV2V+MPH، شحات",
    "lat": 32.801784,
    "lon": 21.894339,
    "type": "فندق"
  },
  {
    "name": "بيوت شباب غدامس",
    "description": NaN,
    "lat": 30.1205014,
    "lon": 9.4980544,
    "type": "فندق"
  },
  {
    "name": "عنود الجبل شقق فندقية",
    "description": NaN,
    "lat": 32.764457,
    "lon": 21.7551619,
    "type": "فندق"
  },
  {
    "name": "Nalut‏",
    "description": NaN,
    "lat": 31.865579,
    "lon": 10.98537,
    "type": "فندق"
  },
  {
    "name": "فندق أبراج الوسطى",
    "description": NaN,
    "lat": 31.204718,
    "lon": 16.5549527,
    "type": "فندق"
  },
  {
    "name": "فندق طيبة‎‏",
    "description": NaN,
    "lat": 27.053601,
    "lon": 14.421323,
    "type": "فندق"
  },
  {
    "name": "فندق قصر الفيروز‎‏",
    "description": NaN,
    "lat": 32.849774,
    "lon": 13.192323,
    "type": "فندق"
  },
  {
    "name": "Royal Gardens Hotels‏",
    "description": NaN,
    "lat": 32.8862876,
    "lon": 13.1901154,
    "type": "فندق"
  },
  {
    "name": "فندق ابونواس",
    "description": "فندق ابونواس ",
    "lat": 32.863529,
    "lon": 13.091523,
    "type": "فندق"
  },
  {
    "name": "فندق احواص",
    "description": "فندق احواص",
    "lat": 32.8954197,
    "lon": 13.1790752,
    "type": "فندق"
  },
  {
    "name": "فندق الانوار",
    "description": NaN,
    "lat": 32.748233,
    "lon": 12.7337333,
    "type": "فندق"
  },
  {
    "name": "فندق الأخوة",
    "description": NaN,
    "lat": 32.8916446,
    "lon": 13.1740605,
    "type": "فندق"
  },
  {
    "name": "فندق الأصالة",
    "description": NaN,
    "lat": 32.8918811,
    "lon": 13.1788459,
    "type": "فندق"
  },
  {
    "name": "فندق الأصيل",
    "description": "فندق الأصيل ",
    "lat": 32.8819303,
    "lon": 13.1860743,
    "type": "فندق"
  },
  {
    "name": "فندق الأندلس",
    "description": "فندق الأندلس ",
    "lat": 32.8920769,
    "lon": 13.1726487,
    "type": "فندق"
  },
  {
    "name": "فندق البركة",
    "description": NaN,
    "lat": 32.3760478,
    "lon": 15.0959067,
    "type": "فندق"
  },
  {
    "name": "فندق البستان",
    "description": "فندق البستان ",
    "lat": 32.8023006,
    "lon": 13.0783524,
    "type": "فندق"
  },
  {
    "name": "التاج للشقق الفندقية",
    "description": NaN,
    "lat": 32.3740071,
    "lon": 15.0878259,
    "type": "فندق"
  },
  {
    "name": "فندق التاجوري",
    "description": "فندق التاجوري ",
    "lat": 32.8958455,
    "lon": 13.1783129,
    "type": "فندق"
  },
  {
    "name": "فندق الجبل",
    "description": "فندق الجبل ",
    "lat": 32.371113,
    "lon": 15.095,
    "type": "فندق"
  },
  {
    "name": "فندق جوهرة صبراتة السياحي",
    "description": NaN,
    "lat": 32.7947757,
    "lon": 12.4775131,
    "type": "فندق"
  },
  {
    "name": "فندق الجوهرة الزاوية",
    "description": "فندق الجوهرة الزاوية",
    "lat": 32.751953,
    "lon": 12.726081,
    "type": "فندق"
  },
  {
    "name": "فندق الحديقة",
    "description": "فندق الحديقة",
    "lat": 32.891087,
    "lon": 13.179292,
    "type": "فندق"
  },
  {
    "name": "فندق الحمام السياحي",
    "description": "فندق الحمام السياحي",
    "lat": 32.734657,
    "lon": 12.393222,
    "type": "فندق"
  },
  {
    "name": "فندق الحياة",
    "description": "فندق الحياة ",
    "lat": 32.888706,
    "lon": 13.176502,
    "type": "فندق"
  },
  {
    "name": "فندق الخان الطرابلسي",
    "description": "فندق الخان الطرابلسي ",
    "lat": 32.898502,
    "lon": 13.176539,
    "type": "فندق"
  },
  {
    "name": "فندق الخليج",
    "description": "فندق الخليج ",
    "lat": 32.8891584,
    "lon": 13.1756918,
    "type": "فندق"
  },
  {
    "name": "فندق الخليل السياحي",
    "description": "فندق الخليل السياحي    ",
    "lat": 32.796391,
    "lon": 12.485278,
    "type": "فندق"
  },
  {
    "name": "فندق الدبلوماسي",
    "description": NaN,
    "lat": 32.8891424,
    "lon": 13.1736393,
    "type": "فندق"
  },
  {
    "name": "فندق الدوحة",
    "description": "فندق الدوحة    ",
    "lat": 32.892017,
    "lon": 13.171915,
    "type": "فندق"
  },
  {
    "name": "فندق الديار",
    "description": "فندق الديار    ",
    "lat": 32.8915652,
    "lon": 13.1744904,
    "type": "فندق"
  },
  {
    "name": "فندق الرابطة",
    "description": "فندق الرابطة    ",
    "lat": 32.1697271,
    "lon": 13.0142817,
    "type": "فندق"
  },
  {
    "name": "فندق الرفيع",
    "description": "فندق الرفيع    ",
    "lat": 32.8935211,
    "lon": 13.1725882,
    "type": "فندق"
  },
  {
    "name": "فندق الريان",
    "description": NaN,
    "lat": 32.89056,
    "lon": 13.172645,
    "type": "فندق"
  },
  {
    "name": "فندق الزهر",
    "description": "فندق الزهر    ",
    "lat": 32.896046,
    "lon": 13.179107,
    "type": "فندق"
  },
  {
    "name": "فندق الزيتونة",
    "description": "فندق الزيتونة    ",
    "lat": 31.756525,
    "lon": 14.0148,
    "type": "فندق"
  },
  {
    "name": "فندق السرايا",
    "description": "فندق السرايا    ",
    "lat": 32.888588,
    "lon": 13.170639,
    "type": "فندق"
  },
  {
    "name": "فندق السلام",
    "description": "فندق السلام    ",
    "lat": 32.924809,
    "lon": 12.098621,
    "type": "فندق"
  },
  {
    "name": "فندق السندباد",
    "description": "فندق السندباد ",
    "lat": 32.8859872,
    "lon": 13.1626912,
    "type": "فندق"
  },
  {
    "name": "فندق السهم",
    "description": "فندق السهم    ",
    "lat": 32.892365,
    "lon": 13.17269,
    "type": "فندق"
  },
  {
    "name": "فندق السياحي",
    "description": "فندق السياحي    ",
    "lat": 32.891529,
    "lon": 13.174013,
    "type": "فندق"
  },
  {
    "name": "فندق الشاطىء",
    "description": "فندق الشاطىء    ",
    "lat": 32.930157,
    "lon": 12.104337,
    "type": "فندق"
  },
  {
    "name": "فندق الشجرة",
    "description": "فندق الشجرة    ",
    "lat": 32.8935126,
    "lon": 13.1950688,
    "type": "فندق"
  },
  {
    "name": "فندق الشرق",
    "description": "فندق الشرق    ",
    "lat": 32.8873583,
    "lon": 13.1760293,
    "type": "فندق"
  },
  {
    "name": "فندق الشمس",
    "description": NaN,
    "lat": 32.8924857,
    "lon": 13.1733207,
    "type": "فندق"
  },
  {
    "name": "فندق الصحراوي",
    "description": "فندق الصحراوي    ",
    "lat": 32.933887,
    "lon": 12.0825,
    "type": "فندق"
  },
  {
    "name": "فندق الصفوة",
    "description": "فندق الصفوة    ",
    "lat": 32.8902261,
    "lon": 13.1882578,
    "type": "فندق"
  },
  {
    "name": "فندق الصناعية مصراتة",
    "description": "فندق الصناعية مصراتة    ",
    "lat": 32.373493,
    "lon": 15.090645,
    "type": "فندق"
  },
  {
    "name": "فندق الصولجان",
    "description": NaN,
    "lat": 32.8857364,
    "lon": 13.1629409,
    "type": "فندق"
  },
  {
    "name": "فندق الضيافة",
    "description": "فندق الضيافة    ",
    "lat": 32.8922674,
    "lon": 13.1719276,
    "type": "فندق"
  },
  {
    "name": "فندق العاصمة",
    "description": NaN,
    "lat": 32.8896366,
    "lon": 13.1741981,
    "type": "فندق"
  },
  {
    "name": "فندق الغدامسية",
    "description": "فندق الغدامسية    ",
    "lat": 32.895485,
    "lon": 13.178981,
    "type": "فندق"
  },
  {
    "name": "فندق القرقني",
    "description": "فندق القرقني    ",
    "lat": 32.8947514,
    "lon": 13.1792077,
    "type": "فندق"
  },
  {
    "name": "فندق القوس",
    "description": "فندق القوس    ",
    "lat": 32.8930785,
    "lon": 13.1935389,
    "type": "فندق"
  },
  {
    "name": "فندق الكبير",
    "description": "فندق الكبير    ",
    "lat": 32.3738003,
    "lon": 15.0953709,
    "type": "فندق"
  },
  {
    "name": "فندق الكرومة",
    "description": "فندق الكرومة    ",
    "lat": 31.864727,
    "lon": 11.892359,
    "type": "فندق"
  },
  {
    "name": "فندق الماسة",
    "description": "فندق الماسة    ",
    "lat": 32.3734736,
    "lon": 15.085841,
    "type": "فندق"
  },
  {
    "name": "فندق المتوسط",
    "description": "فندق المتوسط‎‎    ",
    "lat": 32.652981,
    "lon": 14.26402,
    "type": "فندق"
  },
  {
    "name": "فندق المدينة",
    "description": "فندق المدينة    ",
    "lat": 32.753613,
    "lon": 12.726944,
    "type": "فندق"
  },
  {
    "name": "فندق المرقب",
    "description": "فندق المرقب    ",
    "lat": 32.642418,
    "lon": 14.252599,
    "type": "فندق"
  },
  {
    "name": "فندق المشكاة",
    "description": "فندق المشكاة    ",
    "lat": 32.891571,
    "lon": 13.179752,
    "type": "فندق"
  },
  {
    "name": "فندق المنامة",
    "description": "فندق المنامة    ",
    "lat": 32.8935411,
    "lon": 13.1729932,
    "type": "فندق"
  },
  {
    "name": "فندق النخلة",
    "description": "فندق النخلة    ",
    "lat": 32.890724,
    "lon": 13.196285,
    "type": "فندق"
  },
  {
    "name": "فندق النقازة",
    "description": "فندق النقازة    ",
    "lat": 32.694199,
    "lon": 14.098898,
    "type": "فندق"
  },
  {
    "name": "فندق النهر",
    "description": "فندق النهر    ",
    "lat": 32.8936604,
    "lon": 13.1710949,
    "type": "فندق"
  },
  {
    "name": "فندق الهنشيري",
    "description": "فندق الهنشيري    ",
    "lat": 32.897038,
    "lon": 13.177876,
    "type": "فندق"
  },
  {
    "name": "فندق الهيشة",
    "description": "فندق الهيشة    ",
    "lat": 31.453671,
    "lon": 15.258722,
    "type": "فندق"
  },
  {
    "name": "فندق الواحات",
    "description": "فندق الواحات    ",
    "lat": 32.887352,
    "lon": 13.168939,
    "type": "فندق"
  },
  {
    "name": "فندق الواحة",
    "description": "فندق الواحة    ",
    "lat": 30.132223,
    "lon": 9.506945,
    "type": "فندق"
  },
  {
    "name": "فندق الياسمين",
    "description": "فندق الياسمين    ",
    "lat": 32.887569,
    "lon": 13.1842,
    "type": "فندق"
  },
  {
    "name": "فندق أجنحة قرطاج",
    "description": "فندق أجنحة قرطاج    ",
    "lat": 32.890884,
    "lon": 13.177596,
    "type": "فندق"
  },
  {
    "name": "فندق أفريقيا",
    "description": "فندق أفريقيا    ",
    "lat": 32.378033,
    "lon": 15.092281,
    "type": "فندق"
  },
  {
    "name": "فندق أوال",
    "description": "فندق أوال    ",
    "lat": 32.888885,
    "lon": 13.172092,
    "type": "فندق"
  },
  {
    "name": "فندق باب البحر",
    "description": "فندق باب البحر    ",
    "lat": 32.894688,
    "lon": 13.165054,
    "type": "فندق"
  },
  {
    "name": "فندق باب العز",
    "description": "فندق باب العز    ",
    "lat": 31.887688,
    "lon": 10.970578,
    "type": "فندق"
  },
  {
    "name": "فندق بلازما",
    "description": "فندق بلازما    ",
    "lat": 32.88559,
    "lon": 13.163955,
    "type": "فندق"
  },
  {
    "name": "فندق بن يدر",
    "description": "فندق بن يدر    ",
    "lat": 30.130571,
    "lon": 9.493617,
    "type": "فندق"
  },
  {
    "name": "فندق بنت السيد",
    "description": "فندق بنت السيد    ",
    "lat": 32.900146,
    "lon": 13.175939,
    "type": "فندق"
  },
  {
    "name": "فندق بودلغوسة",
    "description": "فندق بودلغوسة    ",
    "lat": 32.894421,
    "lon": 13.178583,
    "type": "فندق"
  },
  {
    "name": "فندق بيت الأمان",
    "description": "فندق بيت الأمان    ",
    "lat": 32.8904901,
    "lon": 13.1922573,
    "type": "فندق"
  },
  {
    "name": "فندق بيت الشرق‎",
    "description": "فندق بيت الشرق ",
    "lat": 32.8923696,
    "lon": 13.1723136,
    "type": "فندق"
  },
  {
    "name": "فندق تابكت",
    "description": "فندق تابكت    ",
    "lat": 32.373779,
    "lon": 15.084174,
    "type": "فندق"
  },
  {
    "name": "فندق توباكتس",
    "description": "فندق توباكتس    ",
    "lat": 32.88607,
    "lon": 13.16473,
    "type": "فندق"
  },
  {
    "name": "فندق جي دبليو ماريوت",
    "description": "فندق جي دبليو ماريوت    ",
    "lat": 32.89019,
    "lon": 13.164378,
    "type": "فندق"
  },
  {
    "name": "فندق دار غدامس",
    "description": "فندق دار غدامس    ",
    "lat": 30.113865,
    "lon": 9.491109,
    "type": "فندق"
  },
  {
    "name": "فندق ديار الهناء",
    "description": "فندق ديار الهناء    ",
    "lat": 32.3781743,
    "lon": 15.0905614,
    "type": "فندق"
  },
  {
    "name": "فندق ريباس",
    "description": "فندق ريباس    ",
    "lat": 32.897114,
    "lon": 13.206903,
    "type": "فندق"
  },
  {
    "name": "فندق ريكسوس",
    "description": "فندق ريكسوس    ",
    "lat": 32.859509,
    "lon": 13.193808,
    "type": "فندق"
  },
  {
    "name": "فندق زليتن",
    "description": "فندق زليتن‎    ",
    "lat": 32.475266,
    "lon": 14.559985,
    "type": "فندق"
  },
  {
    "name": "فندق زميت",
    "description": "فندق زميت    ",
    "lat": 32.899632,
    "lon": 13.175705,
    "type": "فندق"
  },
  {
    "name": "فندق زهرة الخليج",
    "description": "فندق زهرة الخليج    ",
    "lat": 32.893105,
    "lon": 13.171682,
    "type": "فندق"
  },
  {
    "name": "فندق زوارة",
    "description": "فندق زوارة    ",
    "lat": 32.92326,
    "lon": 12.099145,
    "type": "فندق"
  },
  {
    "name": "فندق سرايا الليبو",
    "description": "فندق سرايا الليبو    ",
    "lat": 32.893341,
    "lon": 13.179074,
    "type": "فندق"
  },
  {
    "name": "فندق سفاري",
    "description": "فندق سفاري    ",
    "lat": 32.3736977,
    "lon": 15.1019467,
    "type": "فندق"
  },
  {
    "name": "فندق سفاري 2",
    "description": "فندق سفاري 2‎    ",
    "lat": 32.351223,
    "lon": 15.04225,
    "type": "فندق"
  },
  {
    "name": "فندق سفيروس",
    "description": "فندق سفيروس    ",
    "lat": 32.644596,
    "lon": 14.250641,
    "type": "فندق"
  },
  {
    "name": "فندق سيفيروس",
    "description": "فندق سيفيروس‎    ",
    "lat": 32.644596,
    "lon": 14.250641,
    "type": "فندق"
  },
  {
    "name": "فندق شروق افريقيا",
    "description": "فندق شروق افريقيا    ",
    "lat": 32.890488,
    "lon": 13.182145,
    "type": "فندق"
  },
  {
    "name": "فندق صحارى ليبيا",
    "description": "فندق صحارى ليبيا    ",
    "lat": 32.885353,
    "lon": 13.162944,
    "type": "فندق"
  },
  {
    "name": "فندق ضيافة ونيس",
    "description": "فندق ضيافة ونيس    ",
    "lat": 32.674606,
    "lon": 13.173898,
    "type": "فندق"
  },
  {
    "name": "فندق طرابلس الدولي",
    "description": "فندق طرابلس الدولي    ",
    "lat": 32.8899351,
    "lon": 13.1751286,
    "type": "فندق"
  },
  {
    "name": "فندق طليطلة",
    "description": "فندق طليطلة    ",
    "lat": 32.892212,
    "lon": 13.203761,
    "type": "فندق"
  },
  {
    "name": "فندق طيبة",
    "description": "فندق طيبة    ",
    "lat": 32.8919262,
    "lon": 13.1718009,
    "type": "فندق"
  },
  {
    "name": "فندق عمير",
    "description": "فندق عمير    ",
    "lat": 32.8921759,
    "lon": 13.1723443,
    "type": "فندق"
  },
  {
    "name": "فندق عين الفرس",
    "description": "فندق عين الفرس    ",
    "lat": 30.133627,
    "lon": 9.495087,
    "type": "فندق"
  },
  {
    "name": "فندق غابة الكشافة",
    "description": "فندق غابة الكشافة    ",
    "lat": 31.951923,
    "lon": 12.315046,
    "type": "فندق"
  },
  {
    "name": "فندق غريان السياحي",
    "description": "فندق غريان السياحي    ",
    "lat": 32.172661,
    "lon": 13.030462,
    "type": "فندق"
  },
  {
    "name": "فندق قرطاج",
    "description": "فندق قرطاج    ",
    "lat": 32.889549,
    "lon": 13.179976,
    "type": "فندق"
  },
  {
    "name": "فندق قصر الظهرة",
    "description": "فندق قصر الظهرة    ",
    "lat": 32.888687,
    "lon": 13.193874,
    "type": "فندق"
  },
  {
    "name": "فندق قصر الفيروز",
    "description": "فندق قصر الفيروز‎    ",
    "lat": 32.853401,
    "lon": 13.194599,
    "type": "فندق"
  },
  {
    "name": "فندق قمر صبراتة",
    "description": "فندق قمر صبراتة    ",
    "lat": 32.792946,
    "lon": 12.486354,
    "type": "فندق"
  },
  {
    "name": "فندق كونتنتال",
    "description": "فندق كونتنتال    ",
    "lat": 32.890827,
    "lon": 13.176499,
    "type": "فندق"
  },
  {
    "name": "فندق لبدة",
    "description": "فندق لبدة    ",
    "lat": 32.640285,
    "lon": 14.278989,
    "type": "فندق"
  },
  {
    "name": "فندق ليالي قرطاج",
    "description": "فندق ليالي قرطاج    ",
    "lat": 32.882137,
    "lon": 13.175961,
    "type": "فندق"
  },
  {
    "name": "فندق ليبيا",
    "description": "فندق ليبيا    ",
    "lat": 32.887112,
    "lon": 13.164703,
    "type": "فندق"
  },
  {
    "name": "فندق مادي الحسان",
    "description": "فندق مادي الحسان    ",
    "lat": 32.89735,
    "lon": 13.178001,
    "type": "فندق"
  },
  {
    "name": "فندق نجوم غدامس",
    "description": "فندق نجوم غدامس    ",
    "lat": 30.130453,
    "lon": 9.492831,
    "type": "فندق"
  },
  {
    "name": "فندق نور الثريا",
    "description": "فندق نور الثريا    ",
    "lat": 32.889447,
    "lon": 13.1723844,
    "type": "فندق"
  },
  {
    "name": "فندق واستراحة جادو",
    "description": "فندق واستراحة جادو    ",
    "lat": 31.939745,
    "lon": 12.087632,
    "type": "فندق"
  },
  {
    "name": "فندق ومطعم الامتياز",
    "description": "فندق ومطعم الامتياز    ",
    "lat": 32.3543987,
    "lon": 15.0992917,
    "type": "فندق"
  },
  {
    "name": "فندق ومطعم النزهة",
    "description": "فندق ومطعم النزهة    ",
    "lat": 32.757835,
    "lon": 12.749993,
    "type": "فندق"
  },
  {
    "name": "فندق يفرن ",
    "description": "فندق يفرن     ",
    "lat": 32.059994,
    "lon": 12.518972,
    "type": "فندق"
  },
  {
    "name": "طرابلس للشقق الفندقية",
    "description": "طرابلس للشقق الفندقية    ",
    "lat": 32.878799,
    "lon": 13.203281,
    "type": "فندق"
  },
  {
    "name": "نزل سمرقند",
    "description": "نزل سمرقند    ",
    "lat": 32.16795,
    "lon": 13.009935,
    "type": "فندق"
  },
  {
    "name": "نزل طرابلس الحديث",
    "description": "نزل طرابلس الحديث    ",
    "lat": 32.898422,
    "lon": 13.177862,
    "type": "فندق"
  },
  {
    "name": "فندق الثريا السياحي",
    "description": "فندق الثريا السياحي    ",
    "lat": 29.039751,
    "lon": 21.53529,
    "type": "فندق"
  },
  {
    "name": "فندق الأنيس",
    "description": "فندق الأنيس    ",
    "lat": 32.118919,
    "lon": 20.058214,
    "type": "فندق"
  },
  {
    "name": "فندق البتراء",
    "description": "فندق البتراء    ",
    "lat": 32.8885353,
    "lon": 13.1737584,
    "type": "فندق"
  },
  {
    "name": "فندق البردي",
    "description": "فندق البردي    ",
    "lat": 31.753349,
    "lon": 25.087399,
    "type": "فندق"
  },
  {
    "name": "فندق البيضاء السياحي - بينتابوليس",
    "description": "فندق البيضاء السياحي - بينتابوليس    ",
    "lat": 32.764446,
    "lon": 21.760279,
    "type": "فندق"
  },
  {
    "name": "فندق التلال",
    "description": "فندق التلال    ",
    "lat": 32.761772,
    "lon": 21.717813,
    "type": "فندق"
  },
  {
    "name": "فندق الجبل",
    "description": "فندق الجبل    ",
    "lat": 32.371113,
    "lon": 15.095,
    "type": "فندق"
  },
  {
    "name": "فندق الجبل الأخضر",
    "description": "فندق الجبل الأخضر ",
    "lat": 32.763145,
    "lon": 22.640741,
    "type": "فندق"
  },
  {
    "name": "فندق الجغبوب",
    "description": "فندق الجغبوب    ",
    "lat": 32.080338,
    "lon": 23.97657,
    "type": "فندق"
  },
  {
    "name": "فندق الجلاء",
    "description": "فندق الجلاء    ",
    "lat": 32.080662,
    "lon": 23.972946,
    "type": "فندق"
  },
  {
    "name": "فندق الحديقة",
    "description": "فندق الحديقة    ",
    "lat": 32.891087,
    "lon": 13.179292,
    "type": "فندق"
  },
  {
    "name": "فندق الحمام السياحي",
    "description": "فندق الحمام السياحي",
    "lat": 32.734657,
    "lon": 12.393222,
    "type": "فندق"
  },
  {
    "name": "فندق الحياة",
    "description": "فندق الحياة    ",
    "lat": 32.888706,
    "lon": 13.176502,
    "type": "فندق"
  },
  {
    "name": "فندق الخان الطرابلسي",
    "description": "فندق الخان الطرابلسي    ",
    "lat": 32.898502,
    "lon": 13.176539,
    "type": "فندق"
  },
  {
    "name": "فندق الخليل السياحي",
    "description": "فندق الخليل السياحي    ",
    "lat": 32.796391,
    "lon": 12.485278,
    "type": "فندق"
  },
  {
    "name": "فندق الدوحة",
    "description": "فندق الدوحة    ",
    "lat": 32.892017,
    "lon": 13.171915,
    "type": "فندق"
  },
  {
    "name": "فندق الرحاب",
    "description": "فندق الرحاب    ",
    "lat": 32.8932035,
    "lon": 13.1732458,
    "type": "فندق"
  },
  {
    "name": "فندق الزهر",
    "description": "فندق الزهر    ",
    "lat": 32.896046,
    "lon": 13.179107,
    "type": "فندق"
  },
  {
    "name": "فندق الزيتونة",
    "description": "فندق الزيتونة    ",
    "lat": 31.756525,
    "lon": 14.0148,
    "type": "فندق"
  },
  {
    "name": "فندق السرايا",
    "description": "فندق السرايا    ",
    "lat": 32.888588,
    "lon": 13.170639,
    "type": "فندق"
  },
  {
    "name": "فندق السلام",
    "description": "فندق السلام    ",
    "lat": 32.924809,
    "lon": 12.098621,
    "type": "فندق"
  },
  {
    "name": "فندق السهم",
    "description": "فندق السهم    ",
    "lat": 32.892365,
    "lon": 13.17269,
    "type": "فندق"
  },
  {
    "name": "فندق السياحي",
    "description": "فندق السياحي    ",
    "lat": 32.891529,
    "lon": 13.174013,
    "type": "فندق"
  },
  {
    "name": "فندق ابن الرومي",
    "description": "فندق ابن الرومي ",
    "lat": 32.8931095,
    "lon": 13.1721514,
    "type": "فندق"
  },
  {
    "name": "فندق اجدابيا",
    "description": "فندق اجدابيا ",
    "lat": 30.7570668,
    "lon": 20.22291,
    "type": "فندق"
  },
  {
    "name": "فندق الحياة",
    "description": NaN,
    "lat": 32.3740231,
    "lon": 15.0838204,
    "type": "فندق"
  },
  {
    "name": "فندق الشاطىء الذهبي 2",
    "description": "فندق الشاطىء الذهبي 2    ",
    "lat": 32.885551,
    "lon": 13.163174,
    "type": "فندق"
  },
  {
    "name": "فندق الصحراوي",
    "description": "فندق الصحراوي    ",
    "lat": 32.933887,
    "lon": 12.0825,
    "type": "فندق"
  },
  {
    "name": "فندق الصناعية مصراتة",
    "description": "فندق الصناعية مصراتة    ",
    "lat": 32.373493,
    "lon": 15.090645,
    "type": "فندق"
  },
  {
    "name": "فندق العوينات",
    "description": NaN,
    "lat": 25.780432,
    "lon": 10.566841,
    "type": "فندق"
  },
  {
    "name": "فندق الفردوس",
    "description": "فندق الفردوس    ",
    "lat": 32.767277,
    "lon": 22.637859,
    "type": "فندق"
  },
  {
    "name": "فندق الفضيل",
    "description": "فندق الفضيل‎    ",
    "lat": 32.09071,
    "lon": 20.049503,
    "type": "فندق"
  },
  {
    "name": "فندق الفضيل رأس لانوف",
    "description": "فندق الفضيل رأس لانوف    ",
    "lat": 30.589722,
    "lon": 18.420834,
    "type": "فندق"
  },
  {
    "name": "فندق الفلك",
    "description": "فندق الفلك    ",
    "lat": 32.080894,
    "lon": 23.976387,
    "type": "فندق"
  },
  {
    "name": "فندق القاهرة",
    "description": "فندق القاهرة    ",
    "lat": 32.761944,
    "lon": 21.743322,
    "type": "فندق"
  },
  {
    "name": "فندق القرضابية",
    "description": "فندق القرضابية    ",
    "lat": 31.211296,
    "lon": 16.622601,
    "type": "فندق"
  },
  {
    "name": "فندق القلعة",
    "description": "فندق القلعة    ",
    "lat": 27.033804,
    "lon": 14.432752,
    "type": "فندق"
  },
  {
    "name": "فندق الكاظم",
    "description": "فندق الكاظم    ",
    "lat": 27.037169,
    "lon": 14.428192,
    "type": "فندق"
  },
  {
    "name": "فندق الكرومة",
    "description": "فندق الكرومة    ",
    "lat": 31.864727,
    "lon": 11.892359,
    "type": "فندق"
  },
  {
    "name": "فندق اللؤلؤة",
    "description": "فندق اللؤلؤة    ",
    "lat": 32.758945,
    "lon": 21.737722,
    "type": "فندق"
  },
  {
    "name": "فندق المبروك",
    "description": "فندق المبروك ",
    "lat": 32.8928497,
    "lon": 13.1723998,
    "type": "فندق"
  },
  {
    "name": "فندق المتوسط",
    "description": "فندق المتوسط‎‎    ",
    "lat": 32.652981,
    "lon": 14.26402,
    "type": "فندق"
  },
  {
    "name": "فندق المدينة",
    "description": "فندق المدينة    ",
    "lat": 32.767067,
    "lon": 21.785664,
    "type": "فندق"
  },
  {
    "name": "فندق المدينة",
    "description": "فندق المدينة    ",
    "lat": 31.206654,
    "lon": 16.588852,
    "type": "فندق"
  },
  {
    "name": "فندق المدينة",
    "description": "فندق المدينة    ",
    "lat": 32.753613,
    "lon": 12.726944,
    "type": "فندق"
  },
  {
    "name": "فندق المدينة",
    "description": "فندق المدينة    ",
    "lat": 30.757528,
    "lon": 20.22394,
    "type": "فندق"
  },
  {
    "name": "فندق المرج السياحي",
    "description": "فندق المرج السياحي    ",
    "lat": 32.49588,
    "lon": 20.836086,
    "type": "فندق"
  },
  {
    "name": "فندق المرقب",
    "description": "فندق المرقب    ",
    "lat": 32.642418,
    "lon": 14.252599,
    "type": "فندق"
  },
  {
    "name": "فندق المسيرة",
    "description": "فندق المسيرة    ",
    "lat": 32.073318,
    "lon": 23.968134,
    "type": "فندق"
  },
  {
    "name": "فندق المشكاة",
    "description": "فندق المشكاة    ",
    "lat": 32.891571,
    "lon": 13.179752,
    "type": "فندق"
  },
  {
    "name": "فندق المغرب العربي",
    "description": "فندق المغرب العربي ",
    "lat": 32.7966499,
    "lon": 12.456023,
    "type": "فندق"
  },
  {
    "name": "فندق المنار",
    "description": "فندق المنار    ",
    "lat": 32.891778,
    "lon": 13.1729455,
    "type": "فندق"
  },
  {
    "name": "فندق النادي الليبي",
    "description": "فندق النادي الليبي    ",
    "lat": 32.136784,
    "lon": 20.077461,
    "type": "فندق"
  },
  {
    "name": "فندق النخلة",
    "description": "فندق النخلة    ",
    "lat": 32.890724,
    "lon": 13.196285,
    "type": "فندق"
  },
  {
    "name": "فندق النخيل - مغلق",
    "description": "فندق النخيل - مغلق    ",
    "lat": 29.123215,
    "lon": 15.938066,
    "type": "فندق"
  },
  {
    "name": "فندق النقازة",
    "description": "فندق النقازة    ",
    "lat": 32.694199,
    "lon": 14.098898,
    "type": "فندق"
  },
  {
    "name": "فندق النوران",
    "description": "فندق النوران    ",
    "lat": 32.127663,
    "lon": 20.075045,
    "type": "فندق"
  },
  {
    "name": "فندق الهاروج",
    "description": "فندق الهاروج    ",
    "lat": 29.130289,
    "lon": 15.950174,
    "type": "فندق"
  },
  {
    "name": "فندق الهاني/ نزل",
    "description": "فندق الهاني ",
    "lat": 32.8923289,
    "lon": 13.1722217,
    "type": "فندق"
  },
  {
    "name": "فندق الهناء",
    "description": "فندق الهناء    ",
    "lat": 32.8919643,
    "lon": 13.175102,
    "type": "فندق"
  },
  {
    "name": "فندق الهنشيري",
    "description": "فندق الهنشيري    ",
    "lat": 32.897038,
    "lon": 13.177876,
    "type": "فندق"
  },
  {
    "name": "فندق الهيشة",
    "description": "فندق الهيشة    ",
    "lat": 31.453671,
    "lon": 15.258722,
    "type": "فندق"
  },
  {
    "name": "فندق الواحات",
    "description": "فندق الواحات    ",
    "lat": 32.887352,
    "lon": 13.168939,
    "type": "فندق"
  },
  {
    "name": "فندق الواحة",
    "description": "فندق الواحة    ",
    "lat": 30.132223,
    "lon": 9.506945,
    "type": "فندق"
  },
  {
    "name": "فندق الوادي",
    "description": "فندق الوادي    ",
    "lat": 32.888648,
    "lon": 13.1806374,
    "type": "فندق"
  },
  {
    "name": "فندق الياسمين",
    "description": "فندق الياسمين    ",
    "lat": 32.887569,
    "lon": 13.1842,
    "type": "فندق"
  },
  {
    "name": "فندق الياقوتة",
    "description": "فندق الياقوتة    ",
    "lat": 32.8912782,
    "lon": 13.176236,
    "type": "فندق"
  },
  {
    "name": "فندق الياقوتة",
    "description": "فندق الياقوتة    ",
    "lat": 32.249558,
    "lon": 20.180843,
    "type": "فندق"
  },
  {
    "name": "فندق اليقين",
    "description": "فندق اليقين    ",
    "lat": 32.8919209,
    "lon": 13.1723093,
    "type": "فندق"
  },
  {
    "name": "فندق اليمامة",
    "description": NaN,
    "lat": 32.8923215,
    "lon": 13.1743183,
    "type": "فندق"
  },
  {
    "name": "فندق اوزو",
    "description": "فندق اوزو    ",
    "lat": 32.101406,
    "lon": 20.058546,
    "type": "فندق"
  },
  {
    "name": "فندق ايلاف",
    "description": "فندق ايلاف    ",
    "lat": 32.770733,
    "lon": 22.643206,
    "type": "فندق"
  },
  {
    "name": "فندق أبراج المدينة",
    "description": NaN,
    "lat": 32.8898923,
    "lon": 13.1730256,
    "type": "فندق"
  },
  {
    "name": "فندق أجنحة قرطاج",
    "description": "فندق أجنحة قرطاج",
    "lat": 32.890884,
    "lon": 13.177596,
    "type": "فندق"
  },
  {
    "name": "فندق أفريقيا",
    "description": "فندق أفريقيا    ",
    "lat": 27.02809,
    "lon": 14.438138,
    "type": "فندق"
  },
  {
    "name": "فندق أفريقيا",
    "description": "فندق أفريقيا    ",
    "lat": 30.758682,
    "lon": 20.221619,
    "type": "فندق"
  },
  {
    "name": "فندق أكاكوس",
    "description": "فندق أكاكوس    ",
    "lat": 24.958349,
    "lon": 10.182599,
    "type": "فندق"
  },
  {
    "name": "فندق أكاكوس",
    "description": "فندق أكاكوس    ",
    "lat": 32.8923315,
    "lon": 13.1914822,
    "type": "فندق"
  },
  {
    "name": "فندق أمال ليبيا",
    "description": "فندق أمال ليبيا    ",
    "lat": 30.780668,
    "lon": 20.23069,
    "type": "فندق"
  },
  {
    "name": "فندق أوال",
    "description": "فندق أوال    ",
    "lat": 32.888886,
    "lon": 13.172092,
    "type": "فندق"
  },
  {
    "name": "فندق أوجلة السياحي",
    "description": "فندق أوجلة السياحي    ",
    "lat": 29.168243,
    "lon": 21.292574,
    "type": "فندق"
  },
  {
    "name": "فندق أويا",
    "description": "فندق أويا    ",
    "lat": 32.8892155,
    "lon": 13.1772685,
    "type": "فندق"
  },
  {
    "name": "فندق باب البحر",
    "description": "فندق باب البحر ",
    "lat": 32.894688,
    "lon": 13.165054,
    "type": "فندق"
  },
  {
    "name": "فندق باب العز",
    "description": "فندق باب العز    ",
    "lat": 31.887688,
    "lon": 10.970578,
    "type": "فندق"
  },
  {
    "name": "فندق براك",
    "description": "فندق براك    ",
    "lat": 27.53722,
    "lon": 14.286153,
    "type": "فندق"
  },
  {
    "name": "فندق برينيتشي",
    "description": "فندق برينيتشي    ",
    "lat": 32.113476,
    "lon": 20.059597,
    "type": "فندق"
  },
  {
    "name": "فندق بلازما",
    "description": "فندق بلازما    ",
    "lat": 32.88559,
    "lon": 13.163955,
    "type": "فندق"
  },
  {
    "name": "فندق بن يدر",
    "description": "فندق بن يدر    ",
    "lat": 30.130571,
    "lon": 9.493617,
    "type": "فندق"
  },
  {
    "name": "فندق بنت السيد",
    "description": "فندق بنت السيد    ",
    "lat": 32.900146,
    "lon": 13.175939,
    "type": "فندق"
  },
  {
    "name": "فندق بنغازي",
    "description": "فندق بنغازي    ",
    "lat": 32.13039,
    "lon": 20.076538,
    "type": "فندق"
  },
  {
    "name": "فندق بودلغوسة",
    "description": "فندق بودلغوسة    ",
    "lat": 32.894421,
    "lon": 13.178583,
    "type": "فندق"
  },
  {
    "name": "فندق تابكت",
    "description": "فندق تابكت    ",
    "lat": 32.373779,
    "lon": 15.084174,
    "type": "فندق"
  },
  {
    "name": "فندق توباكتس",
    "description": "فندق توباكتس    ",
    "lat": 32.88607,
    "lon": 13.16473,
    "type": "فندق"
  },
  {
    "name": "فندق تيبستي",
    "description": "فندق تيبستي    ",
    "lat": 32.11058,
    "lon": 20.068462,
    "type": "فندق"
  },
  {
    "name": "فندق جاكرتا",
    "description": "فندق جاكرتا    ",
    "lat": 32.8887047,
    "lon": 13.1866518,
    "type": "فندق"
  },
  {
    "name": "فندق جالو السياحي",
    "description": "فندق جالو السياحي    ",
    "lat": 29.032753,
    "lon": 21.545835,
    "type": "فندق"
  },
  {
    "name": "فندق جرمة السياحي",
    "description": "فندق جرمة السياحي    ",
    "lat": 26.526762,
    "lon": 13.068645,
    "type": "فندق"
  },
  {
    "name": "فندق جليانة",
    "description": "فندق جليانة‎    ",
    "lat": 32.084225,
    "lon": 20.045986,
    "type": "فندق"
  },
  {
    "name": "فندق جي دبليو ماريوت",
    "description": "فندق جي دبليو ماريوت    ",
    "lat": 32.89019,
    "lon": 13.164378,
    "type": "فندق"
  },
  {
    "name": "فندق دار جرمة",
    "description": "فندق دار جرمة    ",
    "lat": 26.524315,
    "lon": 13.06489,
    "type": "فندق"
  },
  {
    "name": "فندق دار غدامس",
    "description": "فندق دار غدامس    ",
    "lat": 30.113865,
    "lon": 9.491109,
    "type": "فندق"
  },
  {
    "name": "فندق دبي",
    "description": "فندق دبي ",
    "lat": 32.892092,
    "lon": 13.1738857,
    "type": "فندق"
  },
  {
    "name": "فندق دوجال السياحي",
    "description": "فندق دوجال السياحي    ",
    "lat": 32.122803,
    "lon": 20.06068,
    "type": "فندق"
  },
  {
    "name": "فندق ديار الهناء",
    "description": "فندق ديار الهناء ",
    "lat": 32.3739393,
    "lon": 15.0961666,
    "type": "فندق"
  },
  {
    "name": "فندق رواسي",
    "description": "فندق رواسي‎    ",
    "lat": 29.117167,
    "lon": 15.915834,
    "type": "فندق"
  },
  {
    "name": "فندق رويال",
    "description": "فندق رويال    ",
    "lat": 32.8882638,
    "lon": 13.1852943,
    "type": "فندق"
  },
  {
    "name": "فندق ريباس",
    "description": "فندق ريباس    ",
    "lat": 32.897114,
    "lon": 13.206903,
    "type": "فندق"
  },
  {
    "name": "فندق ريكسوس",
    "description": "فندق ريكسوس    ",
    "lat": 32.859509,
    "lon": 13.193808,
    "type": "فندق"
  },
  {
    "name": "فندق زليتن",
    "description": "فندق زليتن‎    ",
    "lat": 32.475266,
    "lon": 14.559985,
    "type": "فندق"
  },
  {
    "name": "فندق زميت",
    "description": "فندق زميت    ",
    "lat": 32.899632,
    "lon": 13.175705,
    "type": "فندق"
  },
  {
    "name": "فندق زهرة البطنان",
    "description": "فندق زهرة البطنان    ",
    "lat": 32.083584,
    "lon": 23.976208,
    "type": "فندق"
  },
  {
    "name": "فندق زهرة الخليج",
    "description": "فندق زهرة الخليج    ",
    "lat": 32.893105,
    "lon": 13.171682,
    "type": "فندق"
  },
  {
    "name": "فندق زوارة",
    "description": "فندق زوارة    ",
    "lat": 32.92326,
    "lon": 12.099145,
    "type": "فندق"
  },
  {
    "name": "فندق زين",
    "description": "فندق زين    ",
    "lat": 32.0741,
    "lon": 23.941698,
    "type": "فندق"
  },
  {
    "name": "فندق سرايا الليبو",
    "description": "فندق سرايا الليبو    ",
    "lat": 32.893341,
    "lon": 13.179074,
    "type": "فندق"
  },
  {
    "name": "فندق سفاري 2",
    "description": "فندق سفاري 2‎    ",
    "lat": 32.351223,
    "lon": 15.04225,
    "type": "فندق"
  },
  {
    "name": "فندق سفيروس",
    "description": "فندق سفيروس    ",
    "lat": 32.644596,
    "lon": 14.250641,
    "type": "فندق"
  },
  {
    "name": "فندق شروق افريقيا",
    "description": "فندق شروق افريقيا    ",
    "lat": 32.890488,
    "lon": 13.182145,
    "type": "فندق"
  },
  {
    "name": "فندق صحارى ليبيا",
    "description": "فندق صحارى ليبيا    ",
    "lat": 32.885353,
    "lon": 13.162944,
    "type": "فندق"
  },
  {
    "name": "فندق ضيافة ونيس",
    "description": "فندق ضيافة ونيس    ",
    "lat": 32.674606,
    "lon": 13.173898,
    "type": "فندق"
  },
  {
    "name": "فندق طليطلة",
    "description": "فندق طليطلة    ",
    "lat": 32.892212,
    "lon": 13.203761,
    "type": "فندق"
  },
  {
    "name": "فندق عمر الخيام",
    "description": "فندق عمر الخيام    ",
    "lat": 32.117958,
    "lon": 20.056427,
    "type": "فندق"
  },
  {
    "name": "فندق عين الفرس",
    "description": "فندق عين الفرس    ",
    "lat": 30.133627,
    "lon": 9.495087,
    "type": "فندق"
  },
  {
    "name": "فندق غابة الكشافة",
    "description": "فندق غابة الكشافة    ",
    "lat": 31.951923,
    "lon": 12.315046,
    "type": "فندق"
  },
  {
    "name": "فندق غريان السياحي",
    "description": "فندق غريان السياحي    ",
    "lat": 32.172661,
    "lon": 13.030462,
    "type": "فندق"
  },
  {
    "name": "فندق فيلا النوران ",
    "description": "فندق فيلا النوران ‎    ",
    "lat": 32.107414,
    "lon": 20.208708,
    "type": "فندق"
  },
  {
    "name": "فندق قاطش ",
    "description": "فندق قاطش     ",
    "lat": 32.771667,
    "lon": 22.62608,
    "type": "فندق"
  },
  {
    "name": "فندق قرطاج",
    "description": "فندق قرطاج    ",
    "lat": 32.889549,
    "lon": 13.179976,
    "type": "فندق"
  },
  {
    "name": "فندق قصر البيضاء",
    "description": "فندق قصر البيضاء    ",
    "lat": 32.762676,
    "lon": 21.743811,
    "type": "فندق"
  },
  {
    "name": "فندق قصر الظهرة",
    "description": "فندق قصر الظهرة    ",
    "lat": 32.888687,
    "lon": 13.193874,
    "type": "فندق"
  },
  {
    "name": "فندق قصر الفضيل",
    "description": "فندق قصر الفضيل‎    ",
    "lat": 32.093102,
    "lon": 20.050541,
    "type": "فندق"
  },
  {
    "name": "فندق قصر الفيروز",
    "description": "فندق قصر الفيروز‎    ",
    "lat": 32.853401,
    "lon": 13.194599,
    "type": "فندق"
  },
  {
    "name": "فندق قصر النيل",
    "description": "فندق قصر النيل    ",
    "lat": 32.119003,
    "lon": 20.056025,
    "type": "فندق"
  },
  {
    "name": "فندق قصر الواحة",
    "description": "فندق قصر الواحة    ",
    "lat": 32.888051,
    "lon": 13.18655,
    "type": "فندق"
  },
  {
    "name": "فندق قصور الضيافة",
    "description": "فندق قصور الضيافة    ",
    "lat": 31.193056,
    "lon": 16.573889,
    "type": "فندق"
  },
  {
    "name": "فندق قصي للشقق المفروشة",
    "description": "فندق قصي للشقق المفروشة    ",
    "lat": 32.085758,
    "lon": 23.971741,
    "type": "فندق"
  },
  {
    "name": "فندق قمر صبراتة",
    "description": "فندق قمر صبراتة    ",
    "lat": 32.792946,
    "lon": 12.486354,
    "type": "فندق"
  },
  {
    "name": "فندق قورينا",
    "description": "فندق قورينا    ",
    "lat": 32.8909951,
    "lon": 13.1935561,
    "type": "فندق"
  },
  {
    "name": "فندق كونتنتال",
    "description": "فندق كونتنتال    ",
    "lat": 32.890827,
    "lon": 13.176499,
    "type": "فندق"
  },
  {
    "name": "فندق لبدة",
    "description": "فندق لبدة    ",
    "lat": 32.640263,
    "lon": 14.279058,
    "type": "فندق"
  },
  {
    "name": "فندق لؤلؤة الخليج",
    "description": "فندق لؤلؤة الخليج    ",
    "lat": 32.764694,
    "lon": 21.777445,
    "type": "فندق"
  },
  {
    "name": "فندق لؤلؤة درنة",
    "description": "فندق لؤلؤة درنة    ",
    "lat": 32.754139,
    "lon": 22.654371,
    "type": "فندق"
  },
  {
    "name": "فندق ليالي قرطاج",
    "description": "فندق ليالي قرطاج    ",
    "lat": 32.882137,
    "lon": 13.175961,
    "type": "فندق"
  },
  {
    "name": "فندق ليبيا",
    "description": "فندق ليبيا    ",
    "lat": 32.887112,
    "lon": 13.164703,
    "type": "فندق"
  },
  {
    "name": "فندق مادي الحسان",
    "description": "فندق مادي الحسان    ",
    "lat": 32.89735,
    "lon": 13.178001,
    "type": "فندق"
  },
  {
    "name": "فندق مرحبا",
    "description": "فندق مرحبا    ",
    "lat": 32.768021,
    "lon": 21.788437,
    "type": "فندق"
  },
  {
    "name": "فندق ميزران",
    "description": "فندق ميزران    ",
    "lat": 32.8946926,
    "lon": 13.1789116,
    "type": "فندق"
  },
  {
    "name": "فندق نجوم غدامس",
    "description": "فندق نجوم غدامس    ",
    "lat": 30.130453,
    "lon": 9.492831,
    "type": "فندق"
  },
  {
    "name": "فندق هارون",
    "description": "فندق هارون    ",
    "lat": 32.8905375,
    "lon": 13.1916399,
    "type": "فندق"
  },
  {
    "name": "فندق واستراحة جادو",
    "description": "فندق واستراحة جادو    ",
    "lat": 31.939745,
    "lon": 12.087632,
    "type": "فندق"
  },
  {
    "name": "فندق ومطعم النزهة",
    "description": "فندق ومطعم النزهة    ",
    "lat": 32.757835,
    "lon": 12.749993,
    "type": "فندق"
  },
  {
    "name": "فندق يفرن ",
    "description": "فندق يفرن     ",
    "lat": 32.059994,
    "lon": 12.518972,
    "type": "فندق"
  },
  {
    "name": "الفندق السياحي",
    "description": "الفندق السياحي    ",
    "lat": 32.375557,
    "lon": 15.091389,
    "type": "فندق"
  },
  {
    "name": "الفندق القديم",
    "description": "الفندق القديم",
    "lat": 32.500561,
    "lon": 20.891672,
    "type": "فندق"
  },
  {
    "name": "الفندق الكبير",
    "description": "الفندق الكبير    ",
    "lat": 32.114559,
    "lon": 20.060369,
    "type": "فندق"
  },
  {
    "name": "القرية السياحية قاريونس",
    "description": "القرية السياحية قاريونس    ",
    "lat": 32.060608,
    "lon": 20.037174,
    "type": "فندق"
  },
  {
    "name": "طرابلس للشقق الفندقية",
    "description": "طرابلس للشقق الفندقية ",
    "lat": 32.878799,
    "lon": 13.203281,
    "type": "فندق"
  },
  {
    "name": "نزل المدينة",
    "description": "نزل المدينة‎    ",
    "lat": 24.964026,
    "lon": 10.176822,
    "type": "فندق"
  },
  {
    "name": "نزل أمباي ",
    "description": "نزل أمباي     ",
    "lat": 26.079599,
    "lon": 13.521364,
    "type": "فندق"
  },
  {
    "name": "نزل بيروت",
    "description": "نزل بيروت‎    ",
    "lat": 32.8918641,
    "lon": 13.1749888,
    "type": "فندق"
  },
  {
    "name": "نزل سمرقند",
    "description": "نزل سمرقند    ",
    "lat": 32.16795,
    "lon": 13.009935,
    "type": "فندق"
  },
  {
    "name": "نزل طرابلس الحديث",
    "description": "نزل طرابلس الحديث    ",
    "lat": 32.898422,
    "lon": 13.177862,
    "type": "فندق"
  },
  {
    "name": "نزل مرحبا",
    "description": "نزل مرحبا‎    ",
    "lat": 32.8919963,
    "lon": 13.1935209,
    "type": "فندق"
  },
  {
    "name": "الماسة للشقق الفندقية",
    "description": "الماسة للشقق الفندقية    ",
    "lat": 32.3568465,
    "lon": 15.0987266,
    "type": "فندق"
  },
  {
    "name": "فندق فزان",
    "description": "فندق فزان    ",
    "lat": 27.04336,
    "lon": 14.42566,
    "type": "فندق"
  },
  {
    "name": "فندق المختار",
    "description": "فندق المختار    ",
    "lat": 32.8921534,
    "lon": 13.1715279,
    "type": "فندق"
  },
  {
    "name": "فندق قصر كاباو",
    "description": "‏",
    "lat": 31.845286,
    "lon": 11.32759,
    "type": "فندق"
  },
  {
    "name": "فندق الأفريقي",
    "description": "فندق الأفريقي    ",
    "lat": 32.75209,
    "lon": 22.664324,
    "type": "فندق"
  },
  {
    "name": "فندق قرطاج السياحى1",
    "description": "فندق قرطاج السياحى1    ",
    "lat": 32.887489,
    "lon": 13.175625,
    "type": "فندق"
  },
  {
    "name": "فندق السارة",
    "description": "فندق السارة    ",
    "lat": 32.887004,
    "lon": 13.173311,
    "type": "فندق"
  },
  {
    "name": "فندق الفصول الاربعة 3",
    "description": "فندق الفصول الاربعة 3 ",
    "lat": 32.889742,
    "lon": 13.17393,
    "type": "فندق"
  },
  {
    "name": "فندق أوال",
    "description": "فندق أوال    ",
    "lat": 32.8878386,
    "lon": 13.1718143,
    "type": "فندق"
  },
  {
    "name": "فندق المتوسط",
    "description": "فندق المتوسط    ",
    "lat": 32.8892822,
    "lon": 13.184983,
    "type": "فندق"
  },
  {
    "name": "فندق صحراء ليبيا",
    "description": "فندق صحراء ليبيا    ",
    "lat": 32.88532,
    "lon": 13.163043,
    "type": "فندق"
  },
  {
    "name": "فندق قرطاج السياحى2",
    "description": "فندق قرطاج السياحى2    ",
    "lat": 32.8874305,
    "lon": 13.1752506,
    "type": "فندق"
  },
  {
    "name": "فندق التوفيق 2",
    "description": "فندق التوفيق 2    ",
    "lat": 32.891418,
    "lon": 13.193296,
    "type": "فندق"
  },
  {
    "name": "فندق النعيم",
    "description": "فندق النعيم    ",
    "lat": 32.890007,
    "lon": 13.246278,
    "type": "فندق"
  },
  {
    "name": "فندق الخليج",
    "description": "فندق الخليج    ",
    "lat": 32.892891,
    "lon": 13.171983,
    "type": "فندق"
  },
  {
    "name": "فندق نور الثرياء",
    "description": "فندق نور الثرياء    ",
    "lat": 32.889765,
    "lon": 13.172246,
    "type": "فندق"
  },
  {
    "name": "نزل كيلو بتراء",
    "description": "نزل كيلو بتراء    ",
    "lat": 32.8921349,
    "lon": 13.192921,
    "type": "فندق"
  },
  {
    "name": "فندق الفصول الاربعة 2",
    "description": "فندق الفصول الاربعة 2    ",
    "lat": 32.891864,
    "lon": 13.1739232,
    "type": "فندق"
  },
  {
    "name": "فندق السفير",
    "description": NaN,
    "lat": 32.8912822,
    "lon": 13.172765,
    "type": "فندق"
  },
  {
    "name": "فندق الثريا",
    "description": "فندق الثريا ",
    "lat": 32.891377,
    "lon": 13.172944,
    "type": "فندق"
  },
  {
    "name": "فندق الشاطئ الذهبى",
    "description": "فندق الشاطئ الذهبى ",
    "lat": 32.8863583,
    "lon": 13.1625194,
    "type": "فندق"
  },
  {
    "name": "فندق الصافي",
    "description": NaN,
    "lat": 32.8893511,
    "lon": 13.1740356,
    "type": "فندق"
  },
  {
    "name": "فندق بوابة أفريقيا",
    "description": "فندق بوابة أفريقيا    ",
    "lat": 32.8885476,
    "lon": 13.1763095,
    "type": "فندق"
  },
  {
    "name": "فندق الفصول الابعة 1",
    "description": "فندق الفصول الابعة 1 ",
    "lat": 32.890845,
    "lon": 13.173452,
    "type": "فندق"
  },
  {
    "name": "فندق سفارى",
    "description": "فندق سفارى    ",
    "lat": 32.8931445,
    "lon": 13.1711906,
    "type": "فندق"
  },
  {
    "name": "فندق زهرة الخليج",
    "description": "فندق زهرة الخليج    ",
    "lat": 32.8931501,
    "lon": 13.1720159,
    "type": "فندق"
  },
  {
    "name": "فندق السلاسل الذهبية",
    "description": "فندق السلاسل الذهبية    ",
    "lat": 32.885084,
    "lon": 13.16218,
    "type": "فندق"
  },
  {
    "name": "فندق بلازما",
    "description": "فندق بلازما    ",
    "lat": 32.885736,
    "lon": 13.163823,
    "type": "فندق"
  },
  {
    "name": "فندق النورس",
    "description": "فندق النورس    ",
    "lat": 32.8912918,
    "lon": 13.1926886,
    "type": "فندق"
  },
  {
    "name": "فندق التوفيق 1",
    "description": "فندق التوفيق 1 ",
    "lat": 32.8911975,
    "lon": 13.1928056,
    "type": "فندق"
  },
  {
    "name": "فندق اليسر",
    "description": "فندق اليسر    ",
    "lat": 32.892294,
    "lon": 13.193206,
    "type": "فندق"
  },
  {
    "name": "فندق الخيام العربية",
    "description": "فندق الخيام العربية    ",
    "lat": 32.890968,
    "lon": 13.1940483,
    "type": "فندق"
  },
  {
    "name": "فندق توباكتس",
    "description": "فندق توباكتس    ",
    "lat": 32.886222,
    "lon": 13.164341,
    "type": "فندق"
  },
  {
    "name": "فندق الرشيد",
    "description": "فندق الرشيد    ",
    "lat": 32.889625,
    "lon": 13.170814,
    "type": "فندق"
  },
  {
    "name": "فندق أسامة",
    "description": "فندق أسامة",
    "lat": 32.8876882,
    "lon": 13.175385,
    "type": "فندق"
  },
  {
    "name": "فندق الزيتونة",
    "description": "فندق الزيتونة    ",
    "lat": 32.8906349,
    "lon": 13.1920339,
    "type": "فندق"
  },
  {
    "name": "فندق ريباس",
    "description": "فندق ريباس    ",
    "lat": 32.897097,
    "lon": 13.207075,
    "type": "فندق"
  },
  {
    "name": "فندق طليطلة",
    "description": "فندق طليطلة    ",
    "lat": 32.892241,
    "lon": 13.200475,
    "type": "فندق"
  },
  {
    "name": "فندق صبراتة",
    "description": NaN,
    "lat": 32.8922209,
    "lon": 13.1740441,
    "type": "فندق"
  },
  {
    "name": "فندق تاج",
    "description": NaN,
    "lat": 32.8922796,
    "lon": 13.1731117,
    "type": "فندق"
  },
  {
    "name": "فندق الكندي",
    "description": NaN,
    "lat": 32.8923765,
    "lon": 13.17305,
    "type": "فندق"
  },
  {
    "name": "فندق أضواء قرطاج",
    "description": NaN,
    "lat": 32.8922677,
    "lon": 13.1726163,
    "type": "فندق"
  },
  {
    "name": "فندق البشير",
    "description": NaN,
    "lat": 32.891744,
    "lon": 13.1716706,
    "type": "فندق"
  },
  {
    "name": "فندق الهاني",
    "description": NaN,
    "lat": 32.8926098,
    "lon": 13.1714031,
    "type": "فندق"
  },
  {
    "name": "فندق القنصل فندق القنصل",
    "description": NaN,
    "lat": 32.8923043,
    "lon": 13.1713689,
    "type": "فندق"
  },
  {
    "name": "فندق الجبل الاخضر",
    "description": NaN,
    "lat": 32.89465299999999,
    "lon": 13.1726831,
    "type": "فندق"
  },
  {
    "name": "الفتح",
    "description": NaN,
    "lat": 32.8942127,
    "lon": 13.1735296,
    "type": "فندق"
  },
  {
    "name": "فندق قصر ليبيا",
    "description": NaN,
    "lat": 32.8931426,
    "lon": 13.1942321,
    "type": "فندق"
  },
  {
    "name": "Hotel Haroun 2",
    "description": NaN,
    "lat": 32.8927146,
    "lon": 13.1937607,
    "type": "فندق"
  },
  {
    "name": "فندق الغزالة",
    "description": NaN,
    "lat": 32.8931827,
    "lon": 13.1896398,
    "type": "فندق"
  },
  {
    "name": "فندق كيان طرابلس",
    "description": NaN,
    "lat": 32.89055449999999,
    "lon": 13.1947142,
    "type": "فندق"
  },
  {
    "name": "فندق الديوان",
    "description": NaN,
    "lat": 32.8878424,
    "lon": 13.1774381,
    "type": "فندق"
  },
  {
    "name": "فندق نيو ستي New City hotel",
    "description": NaN,
    "lat": 32.8879439,
    "lon": 13.176395,
    "type": "فندق"
  },
  {
    "name": "فندق الدالي",
    "description": NaN,
    "lat": 32.8879432,
    "lon": 13.1747996,
    "type": "فندق"
  },
  {
    "name": "زهرة الشمس",
    "description": NaN,
    "lat": 32.8896902,
    "lon": 13.1762696,
    "type": "فندق"
  },
  {
    "name": "فندق ضيافة طرابلس",
    "description": NaN,
    "lat": 32.8898242,
    "lon": 13.176255,
    "type": "فندق"
  },
  {
    "name": "فندق الفتح شارع الرشيد",
    "description": NaN,
    "lat": 32.88945,
    "lon": 13.17786,
    "type": "فندق"
  },
  {
    "name": "فندق بلخير",
    "description": NaN,
    "lat": 32.8907858,
    "lon": 13.1773658,
    "type": "فندق"
  },
  {
    "name": "فندق السرايا",
    "description": NaN,
    "lat": 32.89163459999999,
    "lon": 13.175881,
    "type": "فندق"
  },
  {
    "name": "فندق الوحدة العربية",
    "description": NaN,
    "lat": 32.8917214,
    "lon": 13.1748524,
    "type": "فندق"
  },
  {
    "name": "فندق الكنوز الذهبية",
    "description": NaN,
    "lat": 32.8913495,
    "lon": 13.1743796,
    "type": "فندق"
  },
  {
    "name": "فندق الوطن العربي",
    "description": NaN,
    "lat": 32.8937076,
    "lon": 13.1740089,
    "type": "فندق"
  },
  {
    "name": "فندق الشراع",
    "description": NaN,
    "lat": 32.8921902,
    "lon": 13.1729514,
    "type": "فندق"
  },
  {
    "name": "الحبايب",
    "description": NaN,
    "lat": 32.371804,
    "lon": 15.084422,
    "type": "فندق"
  },
  {
    "name": "هوم بلازا_للشقق الفندقية",
    "description": NaN,
    "lat": 32.3753528,
    "lon": 15.0775397,
    "type": "فندق"
  },
  {
    "name": "فندق الرحال",
    "description": NaN,
    "lat": 32.3806625,
    "lon": 15.0822656,
    "type": "فندق"
  },
  {
    "name": "الوادي 2 للشقق الفندقية",
    "description": NaN,
    "lat": 32.387677,
    "lon": 15.0871152,
    "type": "فندق"
  },
  {
    "name": "الأطلس للشقق الفندقية",
    "description": NaN,
    "lat": 32.3879622,
    "lon": 15.0868561,
    "type": "فندق"
  },
  {
    "name": "الفاخر للشقق الفندقية",
    "description": NaN,
    "lat": 32.3852196,
    "lon": 15.1081937,
    "type": "فندق"
  },
  {
    "name": "فندق بيزا السياحي",
    "description": NaN,
    "lat": 32.4023253,
    "lon": 15.115341,
    "type": "فندق"
  },
  {
    "name": "فندق قوز التيك",
    "description": NaN,
    "lat": 32.3802154,
    "lon": 15.083572,
    "type": "فندق"
  },
  {
    "name": "النجمة الذهبية لشقق الفندقية",
    "description": NaN,
    "lat": 32.3757126,
    "lon": 15.0937323,
    "type": "فندق"
  },
  {
    "name": "الفخامه للشقق المفروشه",
    "description": NaN,
    "lat": 32.79427769999999,
    "lon": 12.4785845,
    "type": "فندق"
  },
  {
    "name": "اوس لشقق المفروشه",
    "description": NaN,
    "lat": 32.7951705,
    "lon": 12.4773899,
    "type": "فندق"
  },
  {
    "name": "فندق الساحل",
    "description": NaN,
    "lat": 32.8018422,
    "lon": 12.4346148,
    "type": "فندق"
  },
  {
    "name": "قرية إدوس السياحية",
    "description": "قرية إدوس السياحية ",
    "lat": 32.9900855,
    "lon": 11.998442,
    "type": "منتجع"
  },
  {
    "name": "قرية مرمرة السياحية",
    "description": "قرية مرمرة السياحية ",
    "lat": 32.98545,
    "lon": 12.00665,
    "type": "منتجع"
  },
  {
    "name": "قرية فيرونا السياحية",
    "description": "قرية ?يرونا السياحية",
    "lat": 32.97933,
    "lon": 12.01095,
    "type": "منتجع"
  },
  {
    "name": "قرية البرتقالة",
    "description": "قرية البرتقالة",
    "lat": 32.9749453,
    "lon": 12.0234337,
    "type": "منتجع"
  },
  {
    "name": "قرية شط النخيل زوارة",
    "description": "قرية شط النخيل زوارة ",
    "lat": 32.955312,
    "lon": 12.0486794,
    "type": "منتجع"
  },
  {
    "name": "قرية أوليڤيا السياحية - زوارة",
    "description": NaN,
    "lat": 32.9751944,
    "lon": 12.0248071,
    "type": "منتجع"
  },
  {
    "name": "منتجع رياض المنصوري",
    "description": "منتجع رياض المنصوري Titanix Resort Zuwara",
    "lat": 32.95211,
    "lon": 12.0565,
    "type": "منتجع"
  },
  {
    "name": "إقامة تولين السياحية",
    "description": "إقامة تولين السياحية ",
    "lat": 32.978668,
    "lon": 12.0213868,
    "type": "منتجع"
  },
  {
    "name": "VILLA HAYA‏",
    "description": NaN,
    "lat": 32.94623,
    "lon": 12.06513,
    "type": "منتجع"
  },
  {
    "name": "منتجع زين السياحي",
    "description": "منتجع زين السياحي ",
    "lat": 32.961648,
    "lon": 12.0418755,
    "type": "منتجع"
  },
  {
    "name": "قرية تيبودا السياحيه",
    "description": "قرية تيبودا السياحيه ",
    "lat": 32.9545,
    "lon": 12.05311,
    "type": "منتجع"
  },
  {
    "name": "منتجع سيتي بارك زوارة",
    "description": NaN,
    "lat": 32.93167,
    "lon": 12.10216,
    "type": "منتجع"
  },
  {
    "name": "قرية جوهرة صبراتة السياحية",
    "description": "قرية جوهرة صبراتة السياحية ",
    "lat": 32.8107,
    "lon": 12.45843,
    "type": "منتجع"
  },
  {
    "name": "قرية المغرب العربي صبراتة",
    "description": "قرية المغرب العربي ",
    "lat": 32.8259566,
    "lon": 12.3285944,
    "type": "منتجع"
  },
  {
    "name": "مركب تليل السياحي_صبراتة",
    "description": "مركب تليل السياحي ",
    "lat": 32.81694,
    "lon": 12.37648,
    "type": "منتجع"
  },
  {
    "name": "القرية السياحية جنزور",
    "description": "القرية السياحية جنزور ",
    "lat": 32.83712,
    "lon": 13.00864,
    "type": "منتجع"
  },
  {
    "name": "قرية بالم سيتي/قرية النخيل السياحية طرابلس",
    "description": NaN,
    "lat": 32.848441,
    "lon": 13.041687,
    "type": "منتجع"
  },
  {
    "name": "القرية السياحية الريقاتة",
    "description": "القرية السياحية الريقاتة ",
    "lat": 32.8521,
    "lon": 13.05782,
    "type": "منتجع"
  },
  {
    "name": "مركب شيراتون - النقاط الأربعة",
    "description": "مركب شيراتون - النقاط الأربعة                                                فندق الاندلس - شيراتون - النقاط الأربعة",
    "lat": 32.880963,
    "lon": 13.146279,
    "type": "منتجع"
  },
  {
    "name": "القرية السياحية تاجوراء",
    "description": "القرية السياحية تاجوراء ",
    "lat": 32.86297,
    "lon": 13.42962,
    "type": "منتجع"
  },
  {
    "name": "منتجع سمرلاند المائي",
    "description": "منتجع سمرلاند المائي ",
    "lat": 32.79624,
    "lon": 13.582164,
    "type": "منتجع"
  },
  {
    "name": "مصيف قرية مارينا السياحية",
    "description": NaN,
    "lat": 32.5956358,
    "lon": 14.3535,
    "type": "منتجع"
  },
  {
    "name": "قرية قصر سيلين العائلية",
    "description": "قرية قصر سيلين العائلية ",
    "lat": 32.7041884,
    "lon": 14.1871872,
    "type": "منتجع"
  },
  {
    "name": "قرية حدائق غنيمة",
    "description": "قرية حدائق غنيمة ",
    "lat": 32.7198825,
    "lon": 14.0588067,
    "type": "منتجع"
  },
  {
    "name": "إستراحة شط غنيمة",
    "description": "إستراحة شط غنيمة ",
    "lat": 32.7217682,
    "lon": 14.0287912,
    "type": "منتجع"
  },
  {
    "name": "قرية المتوسط العائلية",
    "description": "قرية المتوسط العائلية ",
    "lat": 32.7266548,
    "lon": 14.0296077,
    "type": "منتجع"
  },
  {
    "name": "قرية قوس غنيمة السياحية",
    "description": "قرية قوس غنيمة السياحية ",
    "lat": 32.72302,
    "lon": 14.05611,
    "type": "منتجع"
  },
  {
    "name": "قرية لؤلؤة غنيمة العائلية",
    "description": "قرية لؤلؤة غنيمة العائلية ",
    "lat": 32.72176,
    "lon": 14.03409,
    "type": "منتجع"
  },
  {
    "name": "قرية شمس البحر",
    "description": "قرية شمس البحر ",
    "lat": 32.72176,
    "lon": 14.05883,
    "type": "منتجع"
  },
  {
    "name": "قرية الشاطيء الذهبي",
    "description": "الشاطيء الذهبي ",
    "lat": 32.71876,
    "lon": 14.05915,
    "type": "منتجع"
  },
  {
    "name": "منتجع سي شيلز",
    "description": "منتجع سي شيلز ",
    "lat": 32.7048271,
    "lon": 14.1902606,
    "type": "منتجع"
  },
  {
    "name": "منتجع حوض البحر Seapool Resort",
    "description": "منتجع حوض البحر ",
    "lat": 32.7222509,
    "lon": 14.0607489,
    "type": "منتجع"
  },
  {
    "name": "قرية الخمس السياحية",
    "description": "قرية الخمس السياحية ",
    "lat": 32.6457684,
    "lon": 14.2779222,
    "type": "منتجع"
  },
  {
    "name": "قريه غنيمه العائليه",
    "description": "قريه غنيمه العائليه ",
    "lat": 32.64588,
    "lon": 14.27806,
    "type": "منتجع"
  },
  {
    "name": "قرية اكوا مارين السياحية",
    "description": "قرية اكوا مارين السياحية ",
    "lat": 32.72555,
    "lon": 14.034,
    "type": "منتجع"
  },
  {
    "name": "قرية جنيف العائلية غنيمة",
    "description": "قرية جنيف العائلية غنيمة ",
    "lat": 32.72632,
    "lon": 14.03118,
    "type": "منتجع"
  },
  {
    "name": "منتجع شاطئ غنيمة",
    "description": "منتجع شاطئ غنيمة ",
    "lat": 32.719393,
    "lon": 14.053946,
    "type": "منتجع"
  },
  {
    "name": "شاليهات بن حمودة العائلي",
    "description": "شاليهات بن حمودة العائلي ",
    "lat": 32.724932,
    "lon": 14.036992,
    "type": "منتجع"
  },
  {
    "name": "منتجع كريستال السياحي",
    "description": "منتجع كريستال السياحي ",
    "lat": 32.7875341,
    "lon": 13.6352738,
    "type": "منتجع"
  },
  {
    "name": "منتجع رويال السياحي",
    "description": "منتجع رويال السياحي ",
    "lat": 32.7880725,
    "lon": 13.6649677,
    "type": "منتجع"
  },
  {
    "name": "القويعة",
    "description": "القويعة ",
    "lat": 32.788705,
    "lon": 13.63224,
    "type": "منتجع"
  },
  {
    "name": "منتجع فيلا دريم هاوس",
    "description": "منتجع فيلا دريم هاوس ",
    "lat": 32.786663,
    "lon": 13.6725922,
    "type": "منتجع"
  },
  {
    "name": "منتجع شط مريم",
    "description": "              ",
    "lat": 32.7888939,
    "lon": 13.6623284,
    "type": "منتجع"
  },
  {
    "name": "استراحة الجود القويعه",
    "description": "استراحة الجود القويعه ",
    "lat": 32.7884131,
    "lon": 13.6329856,
    "type": "منتجع"
  },
  {
    "name": "منتجع اتش تي السياحي",
    "description": "منتجع اتش تي السياحي ",
    "lat": 32.7864,
    "lon": 13.63298,
    "type": "منتجع"
  },
  {
    "name": "منتجع اتش تي 3",
    "description": "منتجع اتش تي 3 ",
    "lat": 32.788034,
    "lon": 13.642398,
    "type": "منتجع"
  },
  {
    "name": "منتجع شاليهات للاجار",
    "description": "منتجع شاليهات للاجار ",
    "lat": 32.787918,
    "lon": 13.6444767,
    "type": "منتجع"
  },
  {
    "name": "قرية العطايا العائلية",
    "description": "قرية العطايا العائلية ",
    "lat": 32.789468,
    "lon": 13.675653,
    "type": "منتجع"
  },
  {
    "name": "منتجع برستيج",
    "description": "منتجع برستيج ",
    "lat": 32.7869474,
    "lon": 13.6673636,
    "type": "منتجع"
  },
  {
    "name": "قرية القويعة السياحية",
    "description": "قرية القويعة السياحية ",
    "lat": 32.78708,
    "lon": 13.63402,
    "type": "منتجع"
  },
  {
    "name": "شاليهات بن بية",
    "description": "شاليهات بن بية ",
    "lat": 32.7879279,
    "lon": 13.6443505,
    "type": "منتجع"
  },
  {
    "name": "قرية ميار البحر العائليه",
    "description": "قرية ميار البحر العائليه ",
    "lat": 32.789744,
    "lon": 13.68749,
    "type": "منتجع"
  },
  {
    "name": "قرية أغيث السياحية",
    "description": "قرية أغيث السياحية ",
    "lat": 32.7876536,
    "lon": 13.6456806,
    "type": "منتجع"
  },
  {
    "name": "قرية الخلة السياحية العائلية",
    "description": "قرية الخلة السياحية العائلية ",
    "lat": 32.789005,
    "lon": 13.679539,
    "type": "منتجع"
  },
  {
    "name": "مجمع جواهر لاند",
    "description": "مجمع جواهر لاند ",
    "lat": 32.787247,
    "lon": 13.646366,
    "type": "منتجع"
  },
  {
    "name": "منتجع دار البحر",
    "description": "منتجع دار البحر ",
    "lat": 32.7876215,
    "lon": 13.6470901,
    "type": "منتجع"
  },
  {
    "name": "منتجع وادي بالنور",
    "description": "منتجع وادي بالنور ",
    "lat": 32.7926442,
    "lon": 13.59408,
    "type": "منتجع"
  },
  {
    "name": "منتجع بيتش هاوس",
    "description": "منتجع بيتش هاوس ",
    "lat": 32.7174075,
    "lon": 14.058072,
    "type": "منتجع"
  },
  {
    "name": "قرية قوس غنيمة السياحية",
    "description": "              ",
    "lat": 32.722872,
    "lon": 14.05612,
    "type": "منتجع"
  },
  {
    "name": "منتجع ايليت السياحي",
    "description": "              ",
    "lat": 32.788161,
    "lon": 13.659208,
    "type": "منتجع"
  },
  {
    "name": "قرية شمس البحر",
    "description": "              ",
    "lat": 32.721782,
    "lon": 14.058758,
    "type": "منتجع"
  },
  {
    "name": "قرية لؤلؤة غنيمة العائلية",
    "description": "              ",
    "lat": 32.720385,
    "lon": 14.058367,
    "type": "منتجع"
  },
  {
    "name": "شاليهات ركن النيروز",
    "description": "              ",
    "lat": 32.788222,
    "lon": 13.647632,
    "type": "منتجع"
  },
  {
    "name": "قرية رأس الحمراء العائلية",
    "description": "              ",
    "lat": 32.774035,
    "lon": 13.935119,
    "type": "منتجع"
  },
  {
    "name": "قرية شاطئ النخيل الذهبي",
    "description": "              ",
    "lat": 32.772809,
    "lon": 13.935762,
    "type": "منتجع"
  },
  {
    "name": "قرية أصيل السياحية",
    "description": "قرية أصيل السياحية ",
    "lat": 32.4892578,
    "lon": 14.6145831,
    "type": "منتجع"
  },
  {
    "name": "قرية الهُزم السياحية",
    "description": "قرية الهُزم السياحية ",
    "lat": 32.489371,
    "lon": 14.6200546,
    "type": "منتجع"
  },
  {
    "name": "منتجع الأمان السياحي",
    "description": "منتجع الأمان السياحي ",
    "lat": 32.413207,
    "lon": 15.001973,
    "type": "منتجع"
  },
  {
    "name": "منتجع مصراتة",
    "description": "منتجع مصراتة ",
    "lat": 32.405137,
    "lon": 15.114877,
    "type": "منتجع"
  },
  {
    "name": "منتجع فينيسيا",
    "description": "منتجع فينيسيا ",
    "lat": 32.410642,
    "lon": 15.030501,
    "type": "منتجع"
  },
  {
    "name": "قرية زريق السياحية",
    "description": "قرية زريق السياحية ",
    "lat": 32.431147,
    "lon": 14.929789,
    "type": "منتجع"
  },
  {
    "name": "حي قصور الضيافة_سرت",
    "description": "حي قصور الضيافة ",
    "lat": 31.2077676,
    "lon": 16.6152747,
    "type": "منتجع"
  },
  {
    "name": "شاليهات ريماس",
    "description": "شاليهات ريماس ",
    "lat": 31.9031676,
    "lon": 19.949189,
    "type": "منتجع"
  },
  {
    "name": "قرية شاطيء النخيل",
    "description": "              ",
    "lat": 31.942865,
    "lon": 19.954158,
    "type": "منتجع"
  },
  {
    "name": "منتجع مارينا بنغازي السياحي",
    "description": "              ",
    "lat": 31.982998,
    "lon": 19.959256,
    "type": "منتجع"
  },
  {
    "name": "منتجع الصفوة السياحي",
    "description": "              ",
    "lat": 31.992255,
    "lon": 19.964499,
    "type": "منتجع"
  },
  {
    "name": "منتجع ماربيلا السياحي",
    "description": "              ",
    "lat": 31.993245,
    "lon": 19.971313,
    "type": "منتجع"
  },
  {
    "name": "مجمع الاصالة السياحي",
    "description": "              ",
    "lat": 31.99976,
    "lon": 19.974266,
    "type": "منتجع"
  },
  {
    "name": "قرية الفاضل",
    "description": "              ",
    "lat": 32.032708,
    "lon": 20.009364,
    "type": "منتجع"
  },
  {
    "name": "منتجع الأسيل",
    "description": "              ",
    "lat": 32.01888,
    "lon": 19.996643,
    "type": "منتجع"
  },
  {
    "name": "منتجع الماسة السياحي",
    "description": "              ",
    "lat": 32.069522,
    "lon": 20.137676,
    "type": "منتجع"
  },
  {
    "name": "منتجع قاريونس العائلي",
    "description": "              ",
    "lat": 32.061734,
    "lon": 20.039029,
    "type": "منتجع"
  },
  {
    "name": "منتجع النخلة الذهبية",
    "description": "              ",
    "lat": 32.069285,
    "lon": 20.040787,
    "type": "منتجع"
  },
  {
    "name": "منتجع فايا لارجو",
    "description": "منتجع فايا لارجو ",
    "lat": 32.07227,
    "lon": 20.042231,
    "type": "منتجع"
  },
  {
    "name": "قرية قمرت السياحية",
    "description": "قرية قمرت السياحية ",
    "lat": 32.278478,
    "lon": 20.212382,
    "type": "منتجع"
  },
  {
    "name": "منتجع التلال الحمامة",
    "description": "              ",
    "lat": 32.911311,
    "lon": 21.615861,
    "type": "منتجع"
  },
  {
    "name": "منتجع الجراري السياحي - للعائلات",
    "description": "منتجع الجراري السياحي - للعائلات ",
    "lat": 32.905579,
    "lon": 21.604209,
    "type": "منتجع"
  },
  {
    "name": "منتجع ومصيف الحمامة",
    "description": "منتجع ومصيف الحمامة ",
    "lat": 32.916555,
    "lon": 21.621093,
    "type": "منتجع"
  },
  {
    "name": "قرية إيلاف السياحية",
    "description": "قرية إيلاف السياحية ",
    "lat": 32.7194631,
    "lon": 20.9638155,
    "type": "منتجع"
  },
  {
    "name": "شاليهات الحدائق الملكية",
    "description": "شاليهات الحدائق الملكية ",
    "lat": 32.8752309,
    "lon": 21.5950836,
    "type": "منتجع"
  },
  {
    "name": "منتجع وادي الكوف",
    "description": "منتجع وادي الكوف ",
    "lat": 32.702,
    "lon": 21.563798,
    "type": "منتجع"
  },
  {
    "name": "منتجع إيلاند السياحي",
    "description": "منتجع إيلاند السياحي ",
    "lat": 32.895682,
    "lon": 21.940156,
    "type": "منتجع"
  },
  {
    "name": "منتجع كنزي السياحي",
    "description": "منتجع كنزي السياحي ",
    "lat": 32.9008844,
    "lon": 21.9725655,
    "type": "منتجع"
  },
  {
    "name": "منتجع سوسه",
    "description": "منتجع سوسه ",
    "lat": 32.9025146,
    "lon": 22.0249434,
    "type": "منتجع"
  },
  {
    "name": "مصيف القريه/رأس الهلال",
    "description": "مصيف القريه/رأس الهلال ",
    "lat": 32.9017744,
    "lon": 22.1691686,
    "type": "منتجع"
  },
  {
    "name": "منتجع الينابيع السياحي",
    "description": "منتجع الينابيع السياحي ",
    "lat": 32.881896,
    "lon": 22.190223,
    "type": "منتجع"
  },
  {
    "name": "منتجع الاثرون السياحي",
    "description": "منتجع الاثرون السياحي ",
    "lat": 32.869423,
    "lon": 22.279024,
    "type": "منتجع"
  },
  {
    "name": "منتجع إيميليا السياحي",
    "description": "منتجع إيميليا السياحي ",
    "lat": 32.7982606,
    "lon": 22.5622359,
    "type": "منتجع"
  },
  {
    "name": "مصيف 1805",
    "description": "مصيف 1805 ",
    "lat": 32.790435,
    "lon": 22.56117,
    "type": "منتجع"
  },
  {
    "name": "منتجع الابرق السياحي",
    "description": "منتجع الابرق السياحي ",
    "lat": 32.825786,
    "lon": 21.954304,
    "type": "منتجع"
  },
  {
    "name": "منتج شحات السياحي",
    "description": "منتج شحات السياحي ",
    "lat": 32.824524,
    "lon": 21.879472,
    "type": "منتجع"
  },
  {
    "name": "منتجع وموتيل الأمان 1",
    "description": "منتجع وموتيل الأمان 1 ",
    "lat": 32.801446,
    "lon": 21.894591,
    "type": "منتجع"
  },
  {
    "name": "منتجع وموتيل الأمان 3",
    "description": "منتجع وموتيل الأمان 3 ",
    "lat": 32.8263417,
    "lon": 21.9234664,
    "type": "منتجع"
  },
  {
    "name": "شاليهات بوعطية",
    "description": "شاليهات بوعطية ",
    "lat": 32.842844,
    "lon": 21.897302,
    "type": "منتجع"
  },
  {
    "name": "منتجع جود السياحي",
    "description": "منتجع جود السياحي ",
    "lat": 32.840597,
    "lon": 21.88843,
    "type": "منتجع"
  },
  {
    "name": "إستراحات فردية درجة أولى",
    "description": "              ",
    "lat": 32.847121,
    "lon": 21.867999,
    "type": "منتجع"
  },
  {
    "name": "إستراحات فردية",
    "description": "إستراحات فردية ",
    "lat": 32.8470731,
    "lon": 21.8672957,
    "type": "منتجع"
  },
  {
    "name": "منتجع الاسرة السعيدة",
    "description": "منتجع الاسرة السعيدة ",
    "lat": 32.816855,
    "lon": 21.873265,
    "type": "منتجع"
  },
  {
    "name": "شاليهات بومؤمن",
    "description": "شاليهات بومؤمن ",
    "lat": 32.858583,
    "lon": 21.84664,
    "type": "منتجع"
  },
  {
    "name": "منتجع سيف للسياحه ولاستثمار",
    "description": "منتجع سيف للسياحه ولاستثمار ",
    "lat": 32.796428,
    "lon": 21.903627,
    "type": "منتجع"
  },
  {
    "name": "منتجع وفندق ريفان السياحي",
    "description": "منتجع وفندق ريفان السياحي ",
    "lat": 32.0372928,
    "lon": 23.959161,
    "type": "منتجع"
  },
  {
    "name": "قرية سبتيموس السياحية - زوارة",
    "description": "X2M5+PCG، زوارة                                                       ",
    "lat": 32.9846754,
    "lon": 12.0089054,
    "type": "منتجع"
  },
  {
    "name": "قرية سيمو السياحية - زوارة",
    "description": NaN,
    "lat": 32.98616320000001,
    "lon": 12.0038841,
    "type": "منتجع"
  },
  {
    "name": "إقامة تولين",
    "description": "التصن قرية سياحية",
    "lat": 32.9786749,
    "lon": 12.0211821,
    "type": "منتجع"
  }
]